[
    {
        "id": "5315911236074468478",
        "name": "地杰国际城",
        "address": "上海市浦东新区御桥路2066弄29",
        "short_address": "御桥路2066弄29",
        "latitude": 31.15636,
        "longitude": 121.57271,
        "city": "上海市",
        "request_id": "12425006925115d4deb23c3cd4538779fbb1610a2ea9",
        "city_id": 1,
        "geohash": "wtw3nrydcqqy"
    },
    {
        "id": "7911030997390148811",
        "name": "品尊国际中心",
        "address": "上海市普陀区岚皋路555号",
        "short_address": "岚皋路555号",
        "latitude": 31.25668,
        "longitude": 121.42119,
        "city": "上海市",
        "request_id": "12425006925115d4deb23c3cd4538779fbb1610a2ea9",
        "city_id": 1,
        "geohash": "wtw3g405qg3q"
    },
    {
        "id": "17306002229977615687",
        "name": "麦多生活广场",
        "address": "上海市闵行区莲花南路1500弄",
        "short_address": "莲花南路1500弄",
        "latitude": 31.09813,
        "longitude": 121.41334,
        "city": "上海市",
        "request_id": "12425006925115d4deb23c3cd4538779fbb1610a2ea9",
        "city_id": 1,
        "geohash": "wtw2fv4rxzs5"
    },
    {
        "id": "11581342730641771197",
        "name": "华侨城·中意国际",
        "address": "上海市闵行区浦星公路800号",
        "short_address": "浦星公路800号",
        "latitude": 31.10672,
        "longitude": 121.49964,
        "city": "上海市",
        "request_id": "12425006925115d4deb23c3cd4538779fbb1610a2ea9",
        "city_id": 1,
        "geohash": "wtw2uyc3fbcu"
    },
    {
        "id": "7096025350039968702",
        "name": "南方国际广场",
        "address": "上海市奉贤区南奉公路8509弄",
        "short_address": "南奉公路8509弄",
        "latitude": 30.91663,
        "longitude": 121.48461,
        "city": "上海市",
        "request_id": "12425006925115d4deb23c3cd4538779fbb1610a2ea9",
        "city_id": 1,
        "geohash": "wtqruknqktdc"
    },
    {
        "id": "11402503722187393622",
        "name": "环东华时尚休闲中心",
        "address": "上海市长宁区天山路1900",
        "short_address": "天山路1900",
        "latitude": 31.20903,
        "longitude": 121.41386,
        "city": "上海市",
        "request_id": "12425006925115d4deb23c3cd4538779fbb1610a2ea9",
        "city_id": 1,
        "geohash": "wtw3dc6vgbzg"
    },
    {
        "id": "3645753946205169111",
        "name": "上海新天地北里",
        "address": "上海市黄浦区太仓路181弄1~25号",
        "short_address": "太仓路181弄1~25号",
        "latitude": 31.21993,
        "longitude": 121.47491,
        "city": "上海市",
        "request_id": "12425006925115d4deb23c3cd4538779fbb1610a2ea9",
        "city_id": 1,
        "geohash": "wtw3s5rm68cb"
    },
    {
        "id": "17047542042407459903",
        "name": "嘉汇国际广场",
        "address": "上海市徐汇区天钥桥路325号",
        "short_address": "天钥桥路325号",
        "latitude": 31.18908,
        "longitude": 121.44286,
        "city": "上海市",
        "request_id": "12425006925115d4deb23c3cd4538779fbb1610a2ea9",
        "city_id": 1,
        "geohash": "wtw37mzcx9zt"
    },
    {
        "id": "16137592909813420706",
        "name": "六角大楼",
        "address": "上海市黄浦区陆家浜路1139",
        "short_address": "陆家浜路1139",
        "latitude": 31.21219,
        "longitude": 121.48712,
        "city": "上海市",
        "request_id": "12425006925115d4deb23c3cd4538779fbb1610a2ea9",
        "city_id": 1,
        "geohash": "wtw3sd00pjfm"
    },
    {
        "id": "16127927854167797750",
        "name": "上海国际贸易中心",
        "address": "上海市长宁区延安西路2201",
        "short_address": "延安西路2201",
        "latitude": 31.20244,
        "longitude": 121.40399,
        "city": "上海市",
        "request_id": "12425006925115d4deb23c3cd4538779fbb1610a2ea9",
        "city_id": 1,
        "geohash": "wtw3d85xqh2h"
    },
    {
        "id": "14788603997784384141",
        "name": "金桥大厦",
        "address": "上海市长宁区延安西路2077",
        "short_address": "延安西路2077",
        "latitude": 31.20341,
        "longitude": 121.40751,
        "city": "上海市",
        "request_id": "12425006925115d4deb23c3cd4538779fbb1610a2ea9",
        "city_id": 1,
        "geohash": "wtw3d8qm010y"
    },
    {
        "id": "14216684915046822489",
        "name": "宜嘉坊",
        "address": "上海市长宁区天山西路113号",
        "short_address": "天山西路113号",
        "latitude": 31.21635,
        "longitude": 121.37354,
        "city": "上海市",
        "request_id": "12425006925115d4deb23c3cd4538779fbb1610a2ea9",
        "city_id": 1,
        "geohash": "wtw39fv82mqv"
    },
    {
        "id": "10696313107539831877",
        "name": "上海科技京城",
        "address": "上海市黄浦区北京东路688号",
        "short_address": "北京东路688号",
        "latitude": 31.2393,
        "longitude": 121.47844,
        "city": "上海市",
        "request_id": "12425006925115d4deb23c3cd4538779fbb1610a2ea9",
        "city_id": 1,
        "geohash": "wtw3sqcyhgd5"
    },
    {
        "id": "9180208374246702354",
        "name": "吴中商务大厦",
        "address": "上海市闵行区吴中路1109-1临",
        "short_address": "吴中路1109-1临",
        "latitude": 31.17662,
        "longitude": 121.38599,
        "city": "上海市",
        "request_id": "12425006925115d4deb23c3cd4538779fbb1610a2ea9",
        "city_id": 1,
        "geohash": "wtw365w8fx4q"
    },
    {
        "id": "7931869997530225631",
        "name": "上海滩国际大厦",
        "address": "上海市虹口区黄浦路99号",
        "short_address": "黄浦路99号",
        "latitude": 31.24493,
        "longitude": 121.49208,
        "city": "上海市",
        "request_id": "12425006925115d4deb23c3cd4538779fbb1610a2ea9",
        "city_id": 1,
        "geohash": "wtw3sxgyfthg"
    },
    {
        "id": "7601724083369176124",
        "name": "1933老场坊",
        "address": "上海市虹口区溧阳路611号(近海宁路)",
        "short_address": "溧阳路611号(近海宁路)",
        "latitude": 31.25449,
        "longitude": 121.49179,
        "city": "上海市",
        "request_id": "12425006925115d4deb23c3cd4538779fbb1610a2ea9",
        "city_id": 1,
        "geohash": "wtw3u9eweghx"
    },
    {
        "id": "5830032558184590007",
        "name": "建汇大厦",
        "address": "上海市徐汇区衡山路922号",
        "short_address": "衡山路922号",
        "latitude": 31.19537,
        "longitude": 121.43898,
        "city": "上海市",
        "request_id": "12425006925115d4deb23c3cd4538779fbb1610a2ea9",
        "city_id": 1,
        "geohash": "wtw37qvnjq6w"
    },
    {
        "id": "4747588480955100715",
        "name": "杨浦商城",
        "address": "上海市杨浦区鞍山路5号",
        "short_address": "鞍山路5号",
        "latitude": 31.27441,
        "longitude": 121.51305,
        "city": "上海市",
        "request_id": "12425006925115d4deb23c3cd4538779fbb1610a2ea9",
        "city_id": 1,
        "geohash": "wtw3vj74ek94"
    },
    {
        "id": "4133194155345376252",
        "name": "宝华·城市晶典大厦",
        "address": "上海市普陀区安远路518号",
        "short_address": "安远路518号",
        "latitude": 31.2369,
        "longitude": 121.43745,
        "city": "上海市",
        "request_id": "12425006925115d4deb23c3cd4538779fbb1610a2ea9",
        "city_id": 1,
        "geohash": "wtw3eqs01sjw"
    },
    {
        "id": "1803382833014228807",
        "name": "铭德国际广场",
        "address": "上海市静安区民德路158号",
        "short_address": "民德路158号",
        "latitude": 31.25084,
        "longitude": 121.47029,
        "city": "上海市",
        "request_id": "12425006925115d4deb23c3cd4538779fbb1610a2ea9",
        "city_id": 1,
        "geohash": "wtw3u15cqfv1"
    }
]
